City_ID,City,Lat,Lng,Max Temp,Humidity,Cloudiness,Wind Speed,Country,Date
0,beitbridge,-22.2167,30.0,303.07,39,34,1.86,ZW,1675707635
1,albany,42.6001,-73.9662,277.8,74,99,1.79,US,1675707513
2,ames,42.0347,-93.6199,280.75,78,0,9.77,US,1675707344
3,rikitea,-23.1203,-134.9692,298.84,74,16,2.55,PF,1675707249
4,cape town,-33.9258,18.4232,297.23,78,20,6.17,ZA,1675707083
5,nanortalik,60.1432,-45.2371,263.29,87,100,3.43,GL,1675707636
6,inuvik,68.3499,-133.7218,239.63,68,75,2.06,CA,1675707636
7,leningradskiy,69.3833,178.4167,238.82,99,99,3.47,RU,1675707312
8,butaritari,3.0707,172.7902,299.87,83,99,8.0,KI,1675707269
9,huangchuan,32.1272,115.0394,281.9,81,98,2.36,CN,1675707637
10,kapaa,22.0752,-159.319,294.88,95,16,1.34,US,1675707238
11,kodiak,57.79,-152.4072,273.88,64,0,2.06,US,1675707329
12,vermilion,40.1667,-87.7506,281.48,59,0,5.14,US,1675707355
13,ushuaia,-54.8,-68.3,286.96,67,75,10.29,AR,1675707234
14,pacific grove,36.6177,-121.9166,285.68,79,0,3.58,US,1675707078
15,upernavik,72.7868,-56.1549,249.59,94,100,4.12,GL,1675707278
16,ancud,-41.8697,-73.8203,289.97,64,4,4.1,CL,1675707431
17,markala,13.7021,-6.0659,305.87,10,99,2.74,ML,1675707637
18,cayenne,4.9333,-52.3333,299.17,89,100,6.17,GF,1675707637
19,tasiilaq,65.6145,-37.6368,263.24,97,76,1.54,GL,1675707297
20,pinellas park,27.8428,-82.6995,299.29,60,0,3.09,US,1675707170
21,atuona,-9.8,-139.0333,298.86,73,32,7.23,PF,1675707259
22,richards bay,-28.783,32.0377,296.85,88,7,0.96,ZA,1675707638
23,laguna,38.421,-121.4238,284.91,77,0,5.14,US,1675707343
24,mingaora,34.7758,72.3625,279.88,71,3,2.87,PK,1675707638
25,labuhan,-6.8844,112.2051,297.52,87,100,2.78,ID,1675707638
26,pangnirtung,66.1451,-65.7125,239.15,62,20,1.54,CA,1675707417
27,bambous virieux,-20.3428,57.7575,300.29,78,40,3.09,MU,1675707594
28,lorengau,-2.0226,147.2712,299.68,83,100,2.72,PG,1675707639
29,puerto ayora,-0.7393,-90.3518,303.13,88,63,5.81,EC,1675707350
30,iqaluit,63.7506,-68.5145,243.0,61,20,4.63,CA,1675707639
31,cannes,43.55,7.0167,283.15,58,100,2.06,FR,1675707639
32,saint-philippe,-21.3585,55.7679,299.92,84,74,5.12,RE,1675707281
33,kruisfontein,-34.0033,24.7314,296.42,90,64,1.1,ZA,1675707390
34,qaanaaq,77.484,-69.3632,247.0,98,99,1.43,GL,1675707095
35,sitka,57.0531,-135.33,276.09,87,100,4.63,US,1675707128
36,busselton,-33.65,115.3333,292.09,82,29,5.28,AU,1675707102
37,east london,-33.0153,27.9116,297.67,88,0,6.69,ZA,1675707246
38,alyangula,-13.8483,136.4192,300.64,67,36,3.51,AU,1675707640
39,kavaratti,10.5669,72.642,300.3,73,10,4.73,IN,1675707640
40,port elizabeth,-33.918,25.5701,297.77,87,20,2.57,ZA,1675707438
41,clyde river,70.4692,-68.5914,239.28,68,20,1.54,CA,1675707641
42,callaguip,18.0714,120.4867,297.16,88,75,1.03,PH,1675707641
43,lamballe,48.4676,-2.5144,279.86,76,1,3.63,FR,1675707641
44,aguas belas,-9.1114,-37.1231,304.38,43,96,7.01,BR,1675707642
45,new norfolk,-42.7826,147.0587,285.21,59,63,0.89,AU,1675707345
46,catuday,16.2923,119.8062,297.81,77,72,3.29,PH,1675707642
47,chumikan,54.7183,135.315,249.13,89,67,2.85,RU,1675707642
48,alofi,-19.0595,-169.9187,298.09,94,99,1.54,NU,1675707453
49,muroto,33.2833,134.15,283.84,67,100,4.1,JP,1675707642
50,bredasdorp,-34.5322,20.0403,295.17,86,87,5.13,ZA,1675707308
51,zabaykalsk,49.6333,117.3167,251.22,99,43,3.22,RU,1675707643
52,noumea,-22.2763,166.4572,302.04,99,84,4.44,NC,1675707643
53,vaini,-21.2,-175.2,299.16,74,96,2.14,TO,1675707279
54,saint albans,51.75,-0.3333,280.66,73,39,2.06,GB,1675707643
55,bilibino,68.0546,166.4372,235.87,100,100,0.66,RU,1675707556
56,wanning,18.8003,110.3967,295.26,91,28,1.04,CN,1675707543
57,saskylakh,71.9167,114.0833,244.55,99,100,2.0,RU,1675707241
58,weymouth,42.2209,-70.9398,283.18,56,75,7.2,US,1675707644
59,berlevag,70.8578,29.0864,275.15,86,100,16.98,NO,1675707644
60,provideniya,64.3833,-173.3,250.01,98,82,1.48,RU,1675707337
61,nikolskoye,59.7035,30.7861,271.09,94,99,2.82,RU,1675707266
62,bluff,-46.6,168.3333,289.21,69,58,8.68,NZ,1675707306
63,pangody,65.85,74.4859,244.87,100,100,0.93,RU,1675707541
64,ribeira grande,38.5167,-28.7,288.37,67,40,11.83,PT,1675707380
65,cabo san lucas,22.8909,-109.9124,299.55,47,0,2.06,MX,1675707395
66,ballitoville,-29.539,31.2144,298.84,88,20,1.03,ZA,1675707645
67,nigde,37.8333,34.75,268.84,97,100,0.98,TR,1675707645
68,chicama,-7.8447,-79.1469,298.45,59,72,3.77,PE,1675707645
69,camana,-16.6228,-72.7111,299.18,74,88,3.54,PE,1675707646
70,chokurdakh,70.6333,147.9167,241.15,98,100,2.06,RU,1675707341
71,mar del plata,-38.0023,-57.5575,297.5,66,0,8.23,AR,1675707513
72,mahebourg,-20.4081,57.7,300.31,78,40,3.09,MU,1675707412
73,georgetown,5.4112,100.3354,297.11,94,20,1.54,MY,1675707096
74,teknaf,20.8624,92.3058,290.99,62,3,3.61,BD,1675707647
75,narsaq,60.9167,-46.05,259.27,68,68,3.28,GL,1675707305
76,ozinki,51.1786,49.6769,258.13,95,82,2.84,RU,1675707647
77,cherepovets,59.1333,37.9,264.05,86,75,1.0,RU,1675707647
78,ostrovnoy,68.0531,39.5131,265.72,96,90,3.28,RU,1675707298
79,saquena,-4.6667,-73.5167,306.3,43,76,1.77,PE,1675707648
80,porto nacional,-10.7081,-48.4172,303.15,57,75,0.88,BR,1675707648
81,victoria,22.2855,114.1577,293.68,90,82,2.68,HK,1675707008
82,pascagoula,30.3658,-88.5561,294.44,51,0,3.09,US,1675707591
83,tilichiki,60.4667,166.1,241.17,94,16,4.06,RU,1675707648
84,yellowknife,62.456,-114.3525,246.44,76,20,2.06,CA,1675707284
85,mae sai,20.4335,99.8762,291.29,44,0,1.17,TH,1675707649
86,hobart,-42.8794,147.3294,285.4,81,40,1.03,AU,1675707555
87,te anau,-45.4167,167.7167,286.24,89,100,3.5,NZ,1675707596
88,mataura,-46.1927,168.8643,288.37,57,12,3.77,NZ,1675707255
89,castro,-24.7911,-50.0119,299.7,47,53,1.64,BR,1675707251
90,sao filipe,14.8961,-24.4956,294.27,60,41,7.46,CV,1675707642
91,kamina,-8.7386,24.9906,291.26,90,54,2.46,CD,1675707649
92,high level,58.5169,-117.136,254.21,84,75,1.03,CA,1675707649
93,tautira,-17.7333,-149.15,299.89,77,31,6.94,PF,1675707650
94,launceston,-41.45,147.1667,284.9,80,0,3.6,AU,1675707298
95,qena,26.1615,32.7183,287.3,31,63,4.64,EG,1675707650
96,yekaterinovka,52.0508,44.3451,257.62,96,45,2.63,RU,1675707567
97,bengkulu,-3.8004,102.2655,297.33,86,96,2.78,ID,1675707607
98,lompoc,34.6391,-120.4579,288.03,63,0,2.68,US,1675707063
99,punta arenas,-53.15,-70.9167,291.21,45,75,14.92,CL,1675707240
100,mana,5.6592,-53.7767,299.64,79,47,5.06,GF,1675707650
101,molochnoye,59.2917,39.6787,257.23,100,86,1.94,RU,1675707651
102,sistranda,63.7256,8.834,280.13,81,100,12.15,NO,1675707651
103,manzanillo,20.3433,-77.1167,304.03,44,0,3.21,CU,1675707391
104,avarua,-21.2078,-159.775,300.18,89,40,5.14,CK,1675707319
105,itarema,-2.9248,-39.9167,301.34,69,90,5.25,BR,1675707652
106,praia da vitoria,38.7333,-27.0667,287.29,82,75,12.34,PT,1675707652
107,longyearbyen,78.2186,15.6401,273.06,86,100,9.26,SJ,1675707321
108,norman wells,65.282,-126.8329,244.17,76,75,1.54,CA,1675707395
109,airai,-8.9266,125.4092,288.84,94,100,0.56,TL,1675707378
110,shahr-e babak,30.1165,55.1186,282.43,38,52,3.87,IR,1675707652
111,hermanus,-34.4187,19.2345,296.37,82,42,6.3,ZA,1675707281
112,pierre,44.3683,-100.351,280.66,70,0,8.75,US,1675707421
113,hilo,19.7297,-155.09,296.08,99,100,3.09,US,1675707205
114,batemans bay,-35.7167,150.1833,293.2,92,100,1.3,AU,1675707653
115,arman,59.7,150.1667,244.63,83,76,3.9,RU,1675707653
116,cabedelo,-6.9811,-34.8339,300.52,70,71,7.24,BR,1675707658
117,ahuimanu,21.4447,-157.8378,298.01,81,75,5.14,US,1675707659
118,alice springs,-23.7,133.8833,291.9,68,75,2.57,AU,1675707419
119,faya,18.3851,42.4509,288.21,65,46,2.14,SA,1675707659
120,kushmurun,52.4503,64.6311,255.31,99,86,2.01,KZ,1675707452
121,kilosa,-6.8333,36.9833,295.85,85,97,1.48,TZ,1675707660
122,rio gallegos,-51.6226,-69.2181,295.18,43,75,8.75,AR,1675707323
123,ornskoldsvik,63.2909,18.7153,273.68,86,0,2.06,SE,1675707660
124,katsuura,35.1333,140.3,284.0,60,100,1.1,JP,1675707596
125,contamana,-7.3333,-75.0167,303.27,56,100,1.88,PE,1675707660
126,canyon,34.9803,-101.9188,292.62,12,8,9.81,US,1675707661
127,hirtshals,57.5881,9.9592,277.62,85,26,6.73,DK,1675707610
128,esperance,-33.8667,121.9,296.03,54,51,2.19,AU,1675707661
129,fortuna,40.5982,-124.1573,281.47,94,0,0.45,US,1675707388
130,port alfred,-33.5906,26.891,296.58,86,7,1.79,ZA,1675707175
131,tuktoyaktuk,69.4541,-133.0374,231.15,66,20,1.03,CA,1675707352
132,vostok,46.4856,135.8833,252.4,98,100,2.15,RU,1675707662
133,berezniki,59.4152,56.8124,248.87,100,82,1.35,RU,1675707618
134,traverse city,44.7631,-85.6206,271.95,78,41,3.65,US,1675707662
135,piterka,50.6803,47.4454,261.19,94,98,3.93,RU,1675707621
136,port blair,11.6667,92.75,299.17,89,40,0.0,IN,1675707663
137,rio grande,-32.035,-52.0986,308.21,58,0,5.69,BR,1675707663
138,antalaha,-14.9003,50.2788,297.42,90,100,2.19,MG,1675707443
139,henties bay,-22.116,14.2845,291.64,85,98,3.02,NA,1675707474
140,lebu,-37.6167,-73.65,291.5,65,2,8.13,CL,1675707408
141,beringovskiy,63.05,179.3167,243.7,96,86,4.02,RU,1675707664
142,gonzales,30.2385,-90.9201,294.87,53,0,2.24,US,1675707664
143,bayburt,40.2589,40.2278,269.97,95,100,2.31,TR,1675707664
144,madarounfa,13.3087,7.156,301.89,14,100,4.53,NE,1675707665
145,thompson,55.7435,-97.8558,265.24,86,100,1.03,CA,1675707457
146,jamestown,42.097,-79.2353,272.05,97,100,2.24,US,1675707370
147,vanimo,-2.6741,141.3028,298.15,89,100,2.04,PG,1675707665
148,barrow,71.2906,-156.7887,251.16,71,100,1.54,US,1675707286
149,saint-pierre,-21.3393,55.4781,299.97,69,0,5.14,RE,1675707652
150,khandbari,27.3747,87.2039,285.05,78,81,0.79,NP,1675707666
151,boden,65.8252,21.6886,273.15,93,100,3.2,SE,1675707666
152,aksha,50.2814,113.2867,253.52,96,35,2.15,RU,1675707666
153,hofn,64.2539,-15.2082,274.16,93,100,2.57,IS,1675707514
154,harindanga,22.0383,88.3214,293.69,81,5,3.64,IN,1675707667
155,sisimiut,66.9395,-53.6735,255.67,95,100,3.02,GL,1675707347
156,nizhniy tsasuchey,50.5167,115.1333,253.51,95,26,2.7,RU,1675707632
157,voi,-3.3945,38.563,297.53,61,81,3.38,KE,1675707667
158,nome,64.5011,-165.4064,259.19,72,0,5.14,US,1675707240
159,cidreira,-30.1811,-50.2056,298.74,64,24,4.78,BR,1675707248
160,grand gaube,-20.0064,57.6608,300.37,79,94,2.24,MU,1675707587
161,lagoa,39.05,-27.9833,286.61,71,90,12.87,PT,1675707335
162,abu samrah,35.3029,37.1841,280.07,81,78,11.47,SY,1675707519
163,puerto escondido,15.85,-97.0667,300.61,74,20,7.2,MX,1675707327
164,portland,45.5234,-122.6762,281.73,87,75,5.36,US,1675707556
165,tomatlan,19.9333,-105.25,303.86,33,0,2.68,MX,1675707668
166,bairiki,1.3292,172.9752,301.15,78,75,5.14,KI,1675707668
167,bakchar,57.0186,82.0711,255.23,100,100,1.05,RU,1675707668
168,gorontalo,0.5412,123.0595,296.97,89,99,1.36,ID,1675707669
169,moussoro,13.6408,16.4901,300.59,11,85,5.75,TD,1675707478
170,petropavlovsk-kamchatskiy,53.0452,158.6483,257.48,72,75,3.0,RU,1675707271
171,erzin,36.9559,36.2,280.9,86,100,1.28,TR,1675707669
172,athabasca,54.7169,-113.2854,271.38,83,89,4.69,CA,1675707670
173,vao,-22.6667,167.4833,299.0,73,43,6.17,NC,1675707670
174,tiksi,71.6872,128.8694,238.02,100,87,2.46,RU,1675707339
175,hervey bay,-25.2986,152.8535,297.73,72,5,6.87,AU,1675707670
176,sabha,27.0377,14.4283,286.72,44,60,3.81,LY,1675707671
177,coquimbo,-29.9533,-71.3436,294.0,73,75,5.14,CL,1675707574
178,san cristobal,7.7669,-72.225,301.25,47,79,3.24,VE,1675707671
179,briancon,44.9,6.65,270.9,93,5,0.93,FR,1675707671
180,kavieng,-2.5744,150.7967,300.36,79,100,4.65,PG,1675707339
181,torbay,47.6666,-52.7314,276.97,97,100,5.66,CA,1675707260
182,tubuala,9.5167,-79.0333,299.69,82,39,6.44,PA,1675707672
183,nakhon si thammarat,8.25,100.0,296.24,89,73,0.41,TH,1675707672
184,tuzamapan,19.4,-96.85,295.51,65,39,3.1,MX,1675707673
185,kirakira,-10.4544,161.9205,299.56,85,100,4.75,SB,1675707673
186,gushi,34.6425,109.5843,279.02,41,61,1.61,CN,1675707674
187,kyra,49.5776,111.9753,252.6,94,70,1.84,RU,1675707674
188,bathsheba,13.2167,-59.5167,301.49,61,40,9.26,BB,1675707275
189,thinadhoo,0.5333,72.9333,300.33,75,99,3.8,MV,1675707577
190,nouadhibou,20.931,-17.0347,293.14,52,0,8.75,MR,1675707674
191,vicksburg,32.3526,-90.8779,293.28,52,0,4.12,US,1675707340
192,port hardy,50.6996,-127.4199,280.25,93,100,6.69,CA,1675707487
193,nevelsk,46.6733,141.8633,264.61,69,98,4.49,RU,1675707675
194,hasaki,35.7333,140.8333,279.38,50,100,3.84,JP,1675707405
195,pamanukan,-6.2842,107.8106,298.53,75,98,3.08,ID,1675707675
196,aparecida do taboado,-20.0867,-51.0936,301.07,69,84,2.13,BR,1675707675
197,alta floresta,-9.8756,-56.0861,303.05,66,40,2.57,BR,1675707676
198,calama,-22.4667,-68.9333,296.42,40,40,11.32,CL,1675707676
199,hithadhoo,-0.6,73.0833,300.58,69,55,4.88,MV,1675707208
200,port lincoln,-34.7333,135.8667,289.85,84,0,6.63,AU,1675707239
201,komsomolskiy,40.4272,71.7189,277.55,81,100,2.06,UZ,1675707338
202,pauini,-7.7136,-66.9764,295.61,99,100,0.8,BR,1675707677
203,padang,-0.9492,100.3543,298.18,74,99,1.79,ID,1675707236
204,keti bandar,24.1447,67.4497,294.96,73,0,4.09,PK,1675707677
205,mudanya,40.3753,28.8822,276.49,86,100,9.69,TR,1675707406
206,davila,18.4726,120.5763,297.14,76,50,2.07,PH,1675707678
207,nuuk,64.1835,-51.7216,259.49,92,75,3.6,GL,1675707679
208,tura,25.5198,90.2201,288.39,42,0,1.26,IN,1675707610
209,arraial do cabo,-22.9661,-42.0278,304.13,62,20,6.17,BR,1675707293
210,mitu,1.1983,-70.1733,299.08,88,85,0.73,CO,1675707680
211,haines junction,60.7522,-137.5108,274.12,32,58,6.17,CA,1675707385
212,arrecife,28.963,-13.5477,291.14,48,75,5.14,ES,1675707591
213,mount gambier,-37.8333,140.7667,285.17,94,20,2.23,AU,1675707515
214,aklavik,68.2191,-135.0107,237.15,68,100,1.03,CA,1675707368
215,kasempa,-13.4584,25.8338,291.93,96,86,2.12,ZM,1675707681
216,rundu,-17.9333,19.7667,292.94,93,100,2.22,NA,1675707681
217,tuatapere,-46.1333,167.6833,287.75,80,83,3.76,NZ,1675707637
218,kaili,-3.4626,120.2147,293.14,94,98,1.31,ID,1675707409
219,nisia floresta,-6.0911,-35.2086,303.6,60,45,6.35,BR,1675707499
220,severo-kurilsk,50.6789,156.125,269.64,70,94,4.05,RU,1675707424
221,vredendal,-31.6683,18.5012,292.78,87,72,4.72,ZA,1675707579
222,saint anthony,45.0205,-93.218,276.0,72,0,9.26,US,1675707681
223,ixtapa,20.7,-105.2,298.72,47,0,2.06,MX,1675707274
224,la ronge,55.1001,-105.2842,264.29,73,100,6.17,CA,1675707682
225,lerwick,60.1545,-1.1494,281.15,79,93,8.26,GB,1675707682
226,lanzhou,36.0564,103.7922,274.34,40,22,1.15,CN,1675707682
227,ahipara,-35.1667,173.1667,290.19,89,19,3.06,NZ,1675707300
228,avera,33.194,-82.5271,291.79,39,0,2.13,US,1675707665
229,williams lake,52.1415,-122.1445,277.07,69,100,5.66,CA,1675707683
230,vestmannaeyjar,63.4427,-20.2734,274.7,86,75,17.49,IS,1675707683
231,parintins,-2.6283,-56.7358,304.05,56,88,1.73,BR,1675707683
232,marzuq,14.4,46.4667,290.99,65,85,3.22,YE,1675707568
233,umm lajj,25.0213,37.2685,293.12,46,81,4.9,SA,1675707451
234,baghdad,33.3406,44.4009,287.1,72,0,3.09,IQ,1675707684
235,namtsy,62.7161,129.6658,228.65,100,90,1.62,RU,1675707684
236,guerrero negro,27.9769,-114.0611,289.29,60,78,11.23,MX,1675707685
237,japura,-0.3167,102.35,296.96,90,99,1.51,ID,1675707685
238,ambilobe,-13.2,49.05,296.28,95,100,1.36,MG,1675707451
239,saint-joseph,-21.3667,55.6167,299.36,83,76,5.14,RE,1675707350
240,rojhan,28.6868,69.9534,291.55,27,0,3.96,PK,1675707685
241,yatou,37.15,122.3833,275.09,91,74,3.02,CN,1675707686
242,hami,42.8,93.45,273.85,41,99,2.56,CN,1675707301
243,pevek,69.7008,170.3133,235.49,100,99,1.78,RU,1675707481
244,namalenga,-10.95,39.1,295.22,95,100,0.38,TZ,1675707686
245,adeje,28.1227,-16.726,290.94,57,75,0.0,ES,1675707686
246,cody,44.5263,-109.0565,277.36,40,100,3.09,US,1675707560
247,takanabe,32.1333,131.5,282.11,95,100,4.73,JP,1675707687
248,aksu,41.1231,80.2644,269.48,82,99,0.55,CN,1675707687
249,slatina,44.4333,24.3667,271.74,61,85,2.27,RO,1675707687
250,kapoeta,4.7717,33.5903,303.61,20,20,2.18,SS,1675707687
251,san donato milanese,45.4199,9.2663,278.41,70,75,5.14,IT,1675707688
252,mogadishu,2.0371,45.3438,298.32,85,11,8.33,SO,1675707477
253,lamu,-2.2717,40.902,298.06,87,73,6.22,KE,1675707688
254,sao joao da barra,-21.6403,-41.0511,302.2,85,74,3.82,BR,1675707372
255,draguignan,43.5333,6.4667,281.96,72,14,1.54,FR,1675707688
256,matara,5.9485,80.5353,297.11,89,100,1.74,LK,1675707689
257,half moon bay,37.4636,-122.4286,285.71,74,0,5.14,US,1675707689
258,balkanabat,39.5108,54.3671,285.59,37,58,7.5,TM,1675707689
259,bubaque,11.2833,-15.8333,297.68,67,13,9.21,GW,1675707690
260,nanyamba,-10.6833,39.8333,295.7,89,100,1.13,TZ,1675707690
261,touros,-5.1989,-35.4608,302.42,63,39,6.17,BR,1675707437
262,havre-saint-pierre,50.2334,-63.5986,261.15,61,100,2.06,CA,1675707410
263,raga,8.4596,25.678,300.84,13,85,1.62,SS,1675707465
264,kaeo,-35.1,173.7833,288.89,95,20,1.97,NZ,1675707691
265,vakhrushi,58.6847,50.0261,251.36,100,78,1.05,RU,1675707691
266,grindavik,63.8424,-22.4338,273.41,86,75,15.43,IS,1675707691
267,yichang,30.7144,111.2847,282.44,68,25,1.26,CN,1675707672
268,dingle,10.9995,122.6711,296.87,92,52,3.2,PH,1675707692
269,bambanglipuro,-7.95,110.2833,297.36,90,100,3.06,ID,1675707692
270,tamiahua,21.2667,-97.45,297.45,66,0,3.61,MX,1675707692
271,menongue,-14.6585,17.691,291.62,82,100,1.5,AO,1675707693
272,dikson,73.5069,80.5464,251.36,100,100,1.94,RU,1675707304
273,cocobeach,1.0002,9.5823,300.48,80,93,3.85,GA,1675707693
274,fort nelson,58.8053,-122.7002,260.34,77,75,2.24,CA,1675707694
275,marathon,44.9,-89.7668,273.73,72,0,5.66,US,1675707694
276,rorvik,64.8621,11.2373,280.21,87,75,9.77,NO,1675707695
277,ibra,22.6906,58.5334,293.18,54,31,2.35,OM,1675707695
278,kamien pomorski,53.9685,14.7726,274.35,79,7,1.26,PL,1675707695
279,wattegama,6.7989,81.4808,295.36,96,97,1.85,LK,1675707678
280,teya,60.3778,92.6267,250.37,100,99,1.24,RU,1675707696
281,mazamitla,19.9167,-103.0333,296.06,22,12,0.44,MX,1675707696
282,itaituba,-4.2761,-55.9836,305.24,62,40,2.57,BR,1675707654
283,khash,28.2211,61.2158,285.23,38,0,0.14,IR,1675707696
284,innisfail,-17.5333,146.0333,298.82,88,60,2.77,AU,1675707697
285,terney,45.0503,136.6092,260.87,77,79,3.76,RU,1675707697
286,shimoda,34.6667,138.95,279.87,53,100,2.59,JP,1675707369
287,muyezerskiy,63.9333,31.65,257.96,99,87,1.56,RU,1675707698
288,khandyga,62.6667,135.6,234.42,100,100,0.1,RU,1675707698
289,kushiro,42.975,144.3747,265.59,90,76,2.27,JP,1675707698
290,pacifica,37.6138,-122.4869,285.6,73,75,4.12,US,1675707505
291,souillac,-20.5167,57.5167,300.36,78,40,3.09,MU,1675707341
292,chongwe,-15.3292,28.682,292.31,93,77,0.6,ZM,1675707699
293,blechepsin,44.8203,40.5003,271.49,81,100,8.55,RU,1675707699
294,dhidhdhoo,6.8833,73.1,300.26,75,82,3.74,MV,1675707590
295,vila velha,-20.3297,-40.2925,302.12,79,20,6.69,BR,1675707427
296,sorland,67.667,12.6934,281.07,92,100,16.82,NO,1675707699
297,yulara,-25.2406,130.9889,296.4,20,0,3.53,AU,1675707361
298,cordoba,-31.4135,-64.1811,310.61,26,0,3.09,AR,1675707449
299,carnarvon,-24.8667,113.6333,297.6,73,0,9.31,AU,1675707288
300,ujfeherto,47.8,21.6833,270.04,78,5,5.71,HU,1675707700
301,kenai,60.5544,-151.2583,270.98,93,100,2.06,US,1675707700
302,hualmay,-11.0964,-77.6139,297.61,74,95,2.73,PE,1675707700
303,chernyshevskiy,63.0128,112.4714,239.09,98,99,0.12,RU,1675707701
304,pozo colorado,-23.4923,-58.7972,309.72,30,100,1.74,PY,1675707702
305,luderitz,-26.6481,15.1594,292.48,83,11,6.39,NA,1675707380
306,glace bay,46.1969,-59.957,276.42,85,100,1.54,CA,1675707702
307,de aar,-30.6497,24.0123,300.81,29,73,4.08,ZA,1675707703
308,kortkeros,61.8106,51.5806,260.15,100,93,0.92,RU,1675707703
309,saint-augustin,51.226,-58.6502,259.57,68,100,3.91,CA,1675707477
310,port-cartier,50.0334,-66.8654,263.21,65,55,2.08,CA,1675707703
311,pitimbu,-7.4706,-34.8086,300.48,68,72,6.79,BR,1675707704
312,marsa matruh,31.3525,27.2453,284.81,64,94,6.59,EG,1675707704
313,pilot butte,50.4668,-104.4178,271.94,74,20,12.35,CA,1675707704
314,punta alta,-38.8759,-62.0736,301.36,44,0,9.4,AR,1675707705
315,murray bridge,-35.1167,139.2667,288.77,81,0,2.38,AU,1675707705
316,bonfim,3.0833,-59.95,300.51,62,97,1.5,BR,1675707705
317,svarychiv,48.9622,24.1966,264.71,97,100,1.78,UA,1675707706
318,maragogi,-9.0122,-35.2225,300.85,66,96,5.36,BR,1675707550
319,cherskiy,68.75,161.3,234.93,99,100,2.38,RU,1675707389
320,saint george,37.1041,-113.5841,281.07,68,0,4.63,US,1675706958
321,kaitangata,-46.2817,169.8464,284.19,86,4,2.65,NZ,1675707381
322,coremas,-7.0144,-37.9458,307.54,32,98,4.26,BR,1675707706
323,sola,-13.8833,167.55,300.51,73,87,2.41,VU,1675707437
324,bethel,41.3712,-73.414,283.39,56,100,4.63,US,1675707403
325,jizan,17.3333,42.6667,300.67,63,30,1.95,SA,1675707707
326,beyneu,45.3167,55.2,274.77,77,82,6.64,KZ,1675707446
327,isangel,-19.55,169.2667,299.39,84,89,2.4,VU,1675707541
328,itoman,26.1247,127.6694,294.16,88,100,5.14,JP,1675707498
329,luba,3.4568,8.5547,303.09,80,29,5.49,GQ,1675707707
330,scalea,39.813,15.7956,276.85,60,65,4.52,IT,1675707708
331,aurillac,44.9167,2.45,274.27,78,5,1.82,FR,1675707708
332,cienfuegos,22.1461,-80.4356,305.23,43,40,2.06,CU,1675707708
333,ambulu,-8.345,113.6058,297.46,87,100,2.03,ID,1675707709
334,bilma,18.6853,12.9164,294.89,12,76,4.6,NE,1675707299
335,ulladulla,-35.35,150.4667,291.7,94,100,3.31,AU,1675707709
336,baruun-urt,46.6806,113.2792,252.29,86,96,1.33,MN,1675707709
337,ambanja,-13.6833,48.45,297.55,93,100,1.16,MG,1675707709
338,mehamn,71.0357,27.8492,275.12,93,75,16.98,NO,1675707710
339,anadyr,64.75,177.4833,245.43,75,75,6.0,RU,1675707299
340,san quintin,30.4833,-115.95,288.07,52,36,7.08,MX,1675707600
341,larsnes,62.2028,5.5773,282.48,85,100,4.98,NO,1675707710
342,lima,-12.0432,-77.0282,299.29,65,0,8.23,PE,1675707571
343,namibe,-15.1961,12.1522,295.32,78,78,4.51,AO,1675707205
344,broome,42.2506,-75.833,276.4,83,100,5.14,US,1675707360
345,finschhafen,-6.6024,147.8681,299.02,89,100,4.25,PG,1675707710
346,kintampo,8.0563,-1.7306,308.14,19,43,2.24,GH,1675707711
347,pitkyaranta,61.5734,31.4792,261.2,97,63,2.3,RU,1675707711
348,tamandare,-8.7597,-35.1047,300.84,67,98,4.87,BR,1675707711
349,ciudad real,39.0,-4.0,279.85,75,3,4.92,ES,1675707529
350,punto fijo,11.6956,-70.1996,301.14,62,17,13.02,VE,1675707712
351,kandrian,-6.2167,149.55,298.55,88,100,2.29,PG,1675707712
352,abonnema,4.7084,6.7931,301.18,72,61,5.97,NG,1675707712
353,kibungo,-2.1597,30.5427,294.66,66,85,0.92,RW,1675707713
354,fare,-16.7,-151.0167,300.32,75,2,7.5,PF,1675707478
355,lahaina,20.8783,-156.6825,297.49,91,10,4.31,US,1675707478
356,faanui,-16.4833,-151.75,300.6,74,4,7.94,PF,1675707338
357,sibi,29.5448,67.8764,293.16,18,1,4.2,PK,1675707713
358,mayo,38.8876,-76.5119,284.48,54,100,6.17,US,1675707713
359,juan diaz,8.4667,-80.2833,306.73,49,59,7.53,PA,1675707714
360,edd,13.9297,41.6925,300.68,55,84,9.11,ER,1675707714
361,kathu,7.9178,98.3332,298.05,77,97,4.27,TH,1675707715
362,gwadar,25.1216,62.3254,295.02,65,1,4.35,PK,1675707715
363,winterberg,51.2,8.5333,271.54,94,65,2.82,DE,1675707715
364,nadym,65.5333,72.5167,246.7,99,94,2.2,RU,1675707716
365,igarka,67.4667,86.5833,252.4,99,99,2.89,RU,1675707716
366,hobyo,5.3505,48.5268,298.22,79,15,7.46,SO,1675707698
367,naze,28.3667,129.4833,290.66,91,61,6.23,JP,1675707524
368,novosibirsk,55.0411,82.9344,259.76,85,100,1.0,RU,1675707716
369,gejiu,23.306,103.1635,280.66,87,1,1.91,CN,1675707717
370,kargasok,59.0556,80.8572,253.55,100,99,1.4,RU,1675707717
371,rawson,-43.3002,-65.1023,300.86,33,1,9.12,AR,1675707342
372,crossville,35.949,-85.0269,286.92,40,0,1.58,US,1675707657
373,banjar,-8.19,114.9675,297.94,89,100,1.86,ID,1675707717
374,paamiut,61.994,-49.6678,262.42,68,100,4.47,GL,1675707708
375,niimi,34.9833,133.4667,279.01,94,100,1.05,JP,1675707718
376,bose,45.4612,8.0137,277.46,73,98,1.95,IT,1675707718
377,vestmanna,62.1564,-7.1664,279.66,93,100,2.57,FO,1675707718
378,dharchula,29.85,80.5333,282.85,61,51,2.8,IN,1675707599
379,liling,27.6667,113.5,280.92,96,77,1.18,CN,1675707719
380,sambava,-14.2667,50.1667,297.98,89,100,2.11,MG,1675707719
381,lavrentiya,65.5833,-171.0,244.79,89,44,2.51,RU,1675707451
382,poum,-20.2333,164.0167,300.76,81,100,7.05,NC,1675707290
383,hamilton,39.1834,-84.5333,280.87,60,0,2.06,US,1675707441
384,baykalsk,51.5058,104.1469,260.56,82,11,3.45,RU,1675707719
385,uyuni,-20.4597,-66.825,283.89,63,100,0.72,BO,1675707720
386,ibipeba,-11.6408,-42.0111,305.51,27,96,3.3,BR,1675707720
387,lastoursville,-0.8143,12.7287,300.09,64,72,0.89,GA,1675707721
388,cockburn town,21.4612,-71.1419,300.13,65,40,7.72,TC,1675707414
389,ambovombe,-25.1667,46.0833,296.8,85,100,8.27,MG,1675707721
390,russell,32.3502,-85.1999,293.36,38,0,1.53,US,1675707721
391,aginskoye,51.1,114.53,255.52,93,47,3.21,RU,1675707722
392,virginia beach,36.8529,-75.978,287.18,49,40,7.2,US,1675707532
393,khatanga,71.9667,102.5,232.4,100,42,1.67,RU,1675707362
394,cortez,37.3489,-108.5859,275.95,55,0,4.63,US,1675707722
395,havoysund,70.9963,24.6622,276.28,92,100,18.84,NO,1675707722
396,turukhansk,65.8167,87.9833,247.97,99,97,1.92,RU,1675707695
397,tabas,33.5959,56.9244,285.6,28,89,1.52,IR,1675707723
398,moerai,-22.4333,-151.3333,299.4,78,62,4.26,PF,1675707723
399,staryy nadym,65.6118,72.6842,246.28,100,92,2.01,RU,1675707723
400,lavra,41.2594,-8.7185,288.39,43,0,3.09,PT,1675707724
401,mutis,6.2262,-77.4044,301.38,76,68,1.24,CO,1675707726
402,husavik,66.0449,-17.3389,272.44,70,3,7.16,IS,1675707302
403,thio,-21.6167,166.2167,298.13,91,87,3.17,NC,1675707726
404,constitucion,-35.3333,-72.4167,294.96,61,12,5.33,CL,1675707471
405,piranshahr,36.701,45.1413,274.86,99,96,2.25,IR,1675707727
406,rodez,44.5,2.5833,276.97,70,0,3.09,FR,1675707728
407,lajas,18.05,-67.0593,303.29,63,0,7.6,PR,1675707728
408,spas-demensk,54.4122,34.0226,263.45,98,68,1.39,RU,1675707729
409,belmonte,-15.8631,-38.8828,302.55,65,0,5.24,BR,1675707729
410,qinzhou,21.95,108.6167,290.92,94,100,1.53,CN,1675707730
411,sur,22.5667,59.5289,295.0,63,42,0.69,OM,1675707232
412,chuy,-33.6971,-53.4616,302.04,40,54,3.95,UY,1675707386
413,san policarpo,12.1791,125.5072,299.24,80,43,4.91,PH,1675707730
414,puerto carreno,6.189,-67.4859,308.99,30,46,3.88,CO,1675707731
415,kaduqli,11.0167,29.7167,300.9,13,23,3.64,SD,1675707460
416,nantucket,41.2835,-70.0995,282.23,78,100,9.26,US,1675707642
417,zheleznogorsk-ilimskiy,56.5768,104.1217,257.95,98,100,1.79,RU,1675707731
418,aykhal,66.0,111.5,236.76,100,94,1.75,RU,1675707452
419,ballina,-28.8667,153.5667,292.6,96,99,0.7,AU,1675707689
420,san patricio,28.017,-97.5169,299.12,58,8,8.58,US,1675707603
421,vila franca do campo,37.7167,-25.4333,287.38,97,100,2.22,PT,1675707732
422,gazanjyk,39.2446,55.5154,282.62,53,66,5.13,TM,1675707632
423,goma,-1.6792,29.2228,290.77,76,57,1.22,CD,1675707732
424,fenyi,27.8112,114.6681,283.0,96,100,0.9,CN,1675707733
425,akropong,5.9746,-0.0854,299.68,62,63,5.31,GH,1675707733
426,pontes e lacerda,-15.2261,-59.3353,296.73,91,100,1.02,BR,1675707558
427,darhan,49.4867,105.9228,250.3,98,9,2.72,MN,1675707733
428,broken hill,-31.95,141.4333,295.26,33,12,4.24,AU,1675707567
429,geri,35.1,33.4167,281.49,76,75,8.23,CY,1675707734
430,idrinskoye,54.3708,92.1358,250.87,100,73,0.79,RU,1675707734
431,kamphaeng phet,16.25,99.5,299.89,51,36,1.82,TH,1675707734
432,linxia,35.6003,103.2064,271.96,43,82,0.53,CN,1675707735
433,gazli,40.1333,63.45,277.41,74,36,4.93,UZ,1675707735
434,albertville,34.2676,-86.2089,290.18,36,0,0.0,US,1675707736
435,tessalit,20.1986,1.0114,301.07,11,28,3.52,ML,1675707325
436,zandhoven,51.217,4.6644,279.81,82,75,1.03,BE,1675707736
437,mahibadhoo,3.7833,72.9667,300.44,71,100,5.25,MV,1675707736
438,atar,20.5169,-13.0499,297.64,16,4,6.07,MR,1675707298
439,coihaique,-45.5752,-72.0662,293.12,40,0,4.63,CL,1675707150
440,vilyuysk,63.7553,121.6247,233.6,100,98,0.6,RU,1675707737
441,kahului,20.8947,-156.47,297.51,86,75,5.66,US,1675707201
442,kuppam,12.75,78.3667,291.11,75,68,2.12,IN,1675707737
443,axim,4.8699,-2.2405,300.29,83,90,4.47,GH,1675707738
444,atkarsk,51.8718,45.0078,255.62,96,55,2.14,RU,1675707738
445,kurilsk,45.2333,147.8833,267.92,67,100,6.92,RU,1675707420
446,hvide sande,56.0045,8.1294,275.42,82,3,4.52,DK,1675707739
447,kesova gora,57.5836,37.2922,258.47,100,74,2.37,RU,1675707739
448,nokaneng,-19.6667,22.2667,298.53,58,88,1.18,BW,1675707581
449,south lake tahoe,38.9332,-119.9844,272.76,79,3,1.6,US,1675707740
450,qaqortoq,60.7167,-46.0333,257.47,70,89,3.28,GL,1675707740
451,bontang,0.1333,117.5,298.55,88,100,2.23,ID,1675707740
452,vozhega,60.4725,40.2213,259.84,98,100,1.74,RU,1675707568
453,mangrol,21.1167,70.1167,293.93,79,1,5.53,IN,1675707734
454,salalah,17.0151,54.0924,297.2,64,0,1.03,OM,1675707627
455,tual,-5.6667,132.75,300.28,79,100,6.63,ID,1675707741
456,grants,35.1473,-107.8514,274.28,69,100,4.63,US,1675707623
457,zabid,14.1951,43.3152,299.32,56,100,5.92,YE,1675707741
458,yumen,40.2833,97.2,270.09,43,48,3.2,CN,1675707608
459,westport,41.1415,-73.3579,284.17,45,91,7.46,US,1675707487
460,balabac,7.9868,117.0645,299.56,83,60,3.8,PH,1675707742
461,jingdezhen,29.2947,117.2079,283.91,97,100,0.76,CN,1675707742
462,isilkul,54.9109,71.2728,252.05,100,99,1.44,RU,1675707742
463,bintulu,3.1667,113.0333,296.38,100,40,1.54,MY,1675707743
464,roald,62.5833,6.1333,282.66,66,75,8.23,NO,1675707444
465,altamira,-3.2033,-52.2064,304.2,62,75,5.14,BR,1675707235
466,chiredzi,-21.05,31.6667,302.15,32,75,2.15,ZW,1675707743
467,morehead,37.2711,-87.1764,288.07,46,0,1.54,US,1675707737
468,ust-maya,60.4167,134.5333,235.06,99,100,1.18,RU,1675707744
469,zhigansk,66.7697,123.3711,225.05,100,72,0.22,RU,1675707604
470,kahramanmaras,38.0,37.0,272.18,92,100,2.31,TR,1675707744
471,lugovskoy,56.9585,64.529,255.42,100,98,1.39,RU,1675707744
472,feicheng,35.2606,117.9675,276.95,86,78,1.04,CN,1675707745
473,onguday,50.75,86.15,262.01,94,88,1.25,RU,1675707697
474,malmyzh,56.5205,50.6818,261.34,98,100,1.96,RU,1675707745
475,fernley,39.608,-119.2518,277.16,58,4,3.58,US,1675707064
476,geraldton,-28.7667,114.6,292.38,77,40,5.14,AU,1675707317
477,stykkisholmur,65.0757,-22.7297,272.73,67,100,15.59,IS,1675707745
478,talara,-4.5772,-81.2719,305.57,48,0,5.14,PE,1675707590
479,sobolevo,54.4299,31.8996,268.66,97,100,1.32,RU,1675707746
480,oka,45.4649,-74.0889,272.56,62,70,1.03,CA,1675707555
481,honiara,-9.4333,159.95,298.49,91,100,2.91,SB,1675707746
482,ocos,14.5094,-92.1933,304.25,66,0,3.76,GT,1675707747
483,jimma,7.6667,36.8333,292.34,36,100,0.92,ET,1675707748
484,hambantota,6.1241,81.1185,297.72,88,88,4.58,LK,1675707326
485,dubovka,49.0583,44.829,264.68,91,55,5.3,RU,1675707748
486,dalianwan,39.0286,121.695,273.12,63,0,1.0,CN,1675707748
487,macomb,40.4592,-90.6718,282.38,64,0,8.23,US,1675707409
488,terrasini,38.146,13.0844,280.91,59,20,5.14,IT,1675707749
489,angoche,-16.2325,39.9086,297.7,91,100,1.45,MZ,1675707749
490,college,64.8569,-147.8028,254.12,78,40,2.06,US,1675707720
491,tiarei,-17.5333,-149.3333,302.16,78,14,7.65,PF,1675707749
492,quatre cocos,-20.2078,57.7625,300.21,80,81,5.66,MU,1675707527
493,karratha,-20.7377,116.8463,303.31,64,0,3.89,AU,1675707750
494,tokur,53.1333,132.9,247.72,99,100,1.14,RU,1675707750
495,sept-iles,50.2001,-66.3821,263.39,69,20,2.57,CA,1675707750
496,denpasar,-8.65,115.2167,298.96,94,75,5.66,ID,1675707602
497,victor harbor,-35.5667,138.6167,287.97,87,1,4.24,AU,1675707751
498,liverpool,53.4106,-2.9779,278.31,78,0,1.54,GB,1675707751
499,guymon,36.6828,-101.4816,291.15,14,0,7.72,US,1675707751
500,oistins,13.0667,-59.5333,301.2,61,40,9.26,BB,1675707637
501,bereda,43.2686,-7.5406,280.6,89,2,3.91,ES,1675707752
502,saldanha,-33.0117,17.9442,292.18,98,51,7.03,ZA,1675707334
503,nanfeng,23.7434,111.7959,290.66,96,99,0.8,CN,1675707752
504,narrabri,-30.3167,149.7833,294.0,75,17,0.45,AU,1675707713
505,khani,41.9563,42.9566,276.91,68,100,3.29,GE,1675707752
506,ustye,59.6304,39.736,256.55,99,90,1.68,RU,1675707753
507,meiganga,6.5167,14.3,297.34,18,34,2.75,CM,1675707753
508,daulatpur,26.5015,67.9706,293.32,26,0,1.0,PK,1675707580
509,mouila,-1.8685,11.0559,298.73,84,92,0.82,GA,1675707753
510,luanda,-8.8368,13.2343,301.15,74,75,4.12,AO,1675707191
511,hof,50.3167,11.9167,272.85,91,75,5.66,DE,1675707754
512,kantunilkin,21.0917,-87.45,300.0,62,23,2.06,MX,1675707754
513,funehiki,37.4333,140.5833,277.6,93,100,0.76,JP,1675707754
514,luau,-10.7073,22.2247,291.33,94,93,1.65,AO,1675707641
515,gamba,-2.65,10.0,299.58,76,66,3.46,GA,1675707755
516,tigil,57.8,158.6667,253.4,96,100,1.9,RU,1675707755
517,whitehorse,60.7161,-135.0538,270.58,63,20,7.2,CA,1675707354
518,alexander city,32.944,-85.9539,292.77,32,0,3.09,US,1675707755
519,abu zabad,12.35,29.25,298.51,12,19,5.13,SD,1675707756
520,sioux lookout,50.1001,-91.917,270.19,68,75,6.17,CA,1675707737
521,kununurra,-15.7667,128.7333,296.14,88,13,0.0,AU,1675707756
522,camacha,33.0833,-16.3333,286.83,67,75,9.77,PT,1675707679
523,milkovo,54.7167,158.6167,256.17,98,100,0.77,RU,1675707756
524,minot,48.2325,-101.2963,274.27,80,0,13.38,US,1675707595
525,inhambane,-23.865,35.3833,297.43,88,100,4.02,MZ,1675707531
526,nurota,40.5614,65.6886,277.38,69,35,1.82,UZ,1675707757
527,saint-francois,46.4154,3.9054,276.86,75,20,3.6,FR,1675707718
528,itupiranga,-5.1347,-49.3267,305.33,57,41,1.05,BR,1675707757
529,masuda,34.6667,131.85,279.93,77,100,2.63,JP,1675707757
530,flin flon,54.7682,-101.865,268.06,68,100,8.75,CA,1675707758
531,chapleau,47.8405,-83.4034,267.2,53,0,4.12,CA,1675707758
532,taltal,-25.4,-70.4833,295.99,72,17,2.89,CL,1675707387
533,sangueya,10.7,-14.3667,303.03,35,88,4.65,GN,1675707759
534,san andres,12.5847,-81.7006,303.16,70,20,7.2,CO,1675707759
535,ponta do sol,32.6667,-17.1,290.77,58,10,3.48,PT,1675707364
536,cravo norte,6.3017,-70.2041,307.44,32,91,5.06,CO,1675707759
537,necochea,-38.5473,-58.7368,297.16,40,11,8.33,AR,1675707760
538,kieta,-6.2167,155.6333,297.49,94,100,2.8,PG,1675707263
539,hovd,48.0056,91.6419,256.74,86,10,0.84,MN,1675707358
540,tabuk,17.4189,121.4443,294.75,95,55,1.67,PH,1675707757
541,baraboo,43.4711,-89.7443,275.33,69,0,4.12,US,1675707760
542,olga,43.7444,135.2892,260.34,86,71,2.51,RU,1675707760
543,machico,32.7,-16.7667,290.77,66,40,4.63,PT,1675707761
544,batagay-alyta,67.8006,130.4114,232.24,96,27,2.08,RU,1675707761
545,oranjemund,-28.55,16.4333,291.68,94,48,3.36,NA,1675707731
546,goderich,43.7501,-81.7165,271.43,69,83,1.03,CA,1675707761
547,port augusta,-32.5,137.7667,295.05,53,0,3.76,AU,1675707762
548,ormara,25.2088,64.6357,295.6,60,1,5.15,PK,1675707539
549,arys,42.4252,68.795,274.47,78,99,1.05,KZ,1675707762
550,huarmey,-10.0681,-78.1522,296.88,78,95,3.51,PE,1675707499
551,zyryanka,65.75,150.85,239.86,100,100,1.39,RU,1675707296
552,adrar,20.5022,-10.0711,295.57,16,69,2.73,MR,1675707762
553,yashkul,46.1711,45.3435,270.8,79,100,7.45,RU,1675707763
554,vardo,70.3705,31.1107,272.14,86,75,16.98,NO,1675707587
555,rameshki,57.3439,36.0453,261.41,97,76,1.96,RU,1675707763
556,berdigestyakh,62.0989,126.6992,227.17,100,98,0.97,RU,1675707763
557,brigham city,41.5102,-112.0155,275.55,82,100,1.79,US,1675707650
558,mirnyy,62.5353,113.9611,240.5,74,97,1.79,RU,1675707764
559,kosh-agach,50.0,88.6667,249.43,97,77,1.54,RU,1675707764
560,mrkonjic grad,44.4158,17.0861,266.71,88,100,1.38,BA,1675707764
561,guiratinga,-16.3494,-53.7583,301.76,65,97,1.71,BR,1675707765
562,sakaiminato,35.55,133.2333,278.14,93,75,3.09,JP,1675707765
563,chisinau,47.0056,28.8575,272.39,78,100,6.69,MD,1675707601
564,diu,20.7141,70.9822,294.24,60,0,3.8,IN,1675707765
565,jacareacanga,-6.2222,-57.7528,302.77,71,76,0.52,BR,1675707766
566,trincomalee,8.5711,81.2335,298.8,84,62,5.69,LK,1675707534
567,batagay,67.6333,134.6333,226.96,99,75,0.86,RU,1675707152
568,southbridge,42.0751,-72.0334,282.81,61,100,0.89,US,1675707762
569,altea,38.5989,-0.0514,284.14,78,100,7.98,ES,1675707303
570,prince george,53.9166,-122.753,276.62,73,100,8.75,CA,1675707766
571,makakilo city,21.3469,-158.0858,297.35,76,0,5.14,US,1675707203
572,gobabis,-22.45,18.9667,297.88,52,90,3.95,NA,1675707767
573,omboue,-1.5746,9.2618,299.57,80,89,2.84,GA,1675707767
574,bowen,-20.0167,148.2333,299.65,84,19,5.54,AU,1675707529
575,ossora,59.2353,163.0719,247.69,93,99,2.1,RU,1675707767
576,smiltene,57.4244,25.9016,269.61,96,100,2.4,LV,1675707768
577,pisco,-13.7,-76.2167,300.18,69,0,6.17,PE,1675707563
578,baykit,61.67,96.37,247.39,100,91,1.31,RU,1675707768
